[
  {
    "lat": 60.25227,
    "lng": 18.68454,
    "name": "Rötis",
    "description": "Mytologisk plats.",
    "type": "Other"
  },
  {
    "lat": 60.25213,
    "lng": 18.70201,
    "name": "Östra östra",
    "description": "Stor stockring på en kulle i skogen. Eldstad och vedskjul. Stig från mitt på Östra ängarna.",
    "type": "campfirering"
  },
  {
    "lat": 60.25301,
    "lng": 18.69656,
    "name": "Woodcraft",
    "description": "Sliten stockring med eldstad på woodcraftspåret. Följ spår från konfdasset eller mitt på östra ängarna.",
    "type": "campfirering"
  },
  {
    "lat": 60.25035,
    "lng": 18.70281,
    "name": "Överängens vindskydd",
    "description": "Uppe på kullen mot vattnet.",
    "type": "windshelterfire"
  },
  {
    "lat": 60.24939,
    "lng": 18.70228,
    "name": "Naturnäran",
    "description": "Stor stockring på naturnärans stig.",
    "type": "campfirering"
  },
  {
    "lat": 60.24838,
    "lng": 18.69683,
    "name": "Södra stranden",
    "description": "Stockring med eldstad och vedskjul vi vattnet. Följ orange stig från Överängen, eller skogsvägen norrifrån.",
    "type": "campfirering"
  },
  {
    "lat": 60.25521,
    "lng": 18.70564,
    "name": "Gamla Stora",
    "description": "Stor klipphäll med eldstad. Följ stigen genom Samarbetsgläntan.",
    "type": "campfirerock"
  },
  {
    "lat": 60.25678,
    "lng": 18.70218,
    "name": "Trappervindskyddet",
    "description": "Vindskydd på trapperspåret. Eldförbud! (förutom stormkök)",
    "type": "windshelter"
  },
  {
    "lat": 60.25828,
    "lng": 18.68827,
    "name": "Båthuset",
    "description": "Stockring utomhus, Ivar-grillar, samt kamin i huset.",
    "type": "firehouse"
  },
  {
    "lat": 60.25449,
    "lng": 18.69039,
    "name": "Grillkåtan",
    "description": "'Lusthus' med stockring och stor eldstad med galler.",
    "type": "firehouse"
  },
  {
    "lat": 60.25469,
    "lng": 18.68400,
    "name": "Rötis/Betongbryggan",
    "description": "Sliten ring (ej komplett) med eldstad.",
    "type": "övrigt"
  },
  {
    "lat": 60.25888,
    "lng": 18.70502,
    "name": "Slåttskär",
    "description": "Vindskydd på trapperspåret.",
    "type": "windshelterfire"
  },
  {
    "lat": 60.25743,
    "lng": 18.68539,
    "name": "Bastuklipporna",
    "description": "Klipphäll med eldstad. Perfekt för 50pers. Följ stigen bortom bastun.",
    "type": "campfirerock"
  },
  {
    "lat": 60.25803,
    "lng": 18.68575,
    "name": "Bastustranden",
    "description": "Nere vid vattnet precis bakom lilla bastun och vattenupptaget finns en mysig lägerbålsplats för en patrull.",
    "type": "campfirerock"
  },
  {
    "lat": 60.25985,
    "lng": 18.69403,
    "name": "Fårhagen",
    "description": "Stockring med eldstad och vedskjul. Följ orange stig från Tyskängen eller 10-dasset. Eller gå över stättan på Mellanängarna.",
    "type": "campfirering"
  },
  {
    "lat": 60.26000,
    "lng": 18.69660,
    "name": "Fladanvägen",
    "description": "Stockring med eldstad och vedskjul. Precis bredvid vägen mellan Tyskängen och Klippängen.",
    "type": "campfirering"
  },
  {
    "lat": 60.26042,
    "lng": 18.69809,
    "name": "Fladanklipporna",
    "description": "Klipphäll med eldstad och vedskjul. Passa ungefär 100pers.",
    "type": "campfirerock"
  },
  {
    "lat": 60.25903,
    "lng": 18.69915,
    "name": "Trappergläntan",
    "description": "Stockring med eldstad och vedskjul precis bortom trapperstarten.",
    "type": "campfirering"
  },
  {
    "lat": 60.26287,
    "lng": 18.69168,
    "name": "Norra ängen",
    "description": "Eldstad på klippan mot vattnet. Saknar stockar just nu.",
    "type": "campfirerock"
  },
  {
    "lat": 60.26381,
    "lng": 18.69084,
    "name": "Norra Ängen",
    "description": "Stockring under uppbyggnad. Saknar stockar just nu.",
    "type": "WIP"
  },
  {
    "lat": 60.26332,
    "lng": 18.69885,
    "name": "Norra vindskyddet",
    "description": "Vindskydd med eldstad.",
    "type": "windshelterfire"
  },
  {
    "lat": 60.26704,
    "lng": 18.69840,
    "name": "Gjusklubben",
    "description": "Klipphäll vid vattnet mot norr.",
    "type": "campfirerock"
  },
  {
    "lat": 60.26672,
    "lng": 18.69723,
    "name": "Gjusklubbens vindskydd",
    "description": "",
    "type": "windshelter"
  },
  {
    "lat": 60.27081,
    "lng": 18.71650,
    "name": "Garpens vindskydd",
    "description": "",
    "type": "windshelter"
  },
  {
    "lat": 60.25716,
    "lng": 18.69316,
    "name": "Eldorado",
    "description": "Stor klipphäll med plats för 2000pers. Eldstad och stockring. Vatten.",
    "type": "campfirerock"
  }
]